[
  {
    "name": "Lakemba Mosque",
    "address": "71-75 Wangee Rd, Lakemba NSW 2195",
    "phone": "(02) 9750 1988",
    "website": "https://www.lakembamosque.org/",
    "region": "South Sydney",
    "rating": null,
    "verified": false,
    "openingHours": [
      "Monday: Open 24 hours",
      "Tuesday: Open 24 hours",
      "Wednesday: Open 24 hours",
      "Thursday: Open 24 hours",
      "Friday: Open 24 hours",
      "Saturday: Open 24 hours",
      "Sunday: Open 24 hours"
    ],
    "currentlyOpen": true,
    "categories": ["place_of_worship", "mosque", "point_of_interest", "establishment"],
    "attributes": ["Wheelchair accessible", "Operational"]
  },
  {
    "name": "Auburn Gallipoli Mosque",
    "address": "15-19 North Parade, Auburn NSW 2144",
    "phone": "(02) 9646 5972",
    "website": "https://gallipolimosque.org.au/",
    "region": "Western Sydney",
    "rating": null,
    "verified": false,
    "openingHours": [
      "Monday: 5:00 AM – 10:00 PM",
      "Tuesday: 5:00 AM – 10:00 PM",
      "Wednesday: 5:00 AM – 10:00 PM",
      "Thursday: 5:00 AM – 10:00 PM",
      "Friday: 5:00 AM – 10:00 PM",
      "Saturday: 5:00 AM – 10:00 PM",
      "Sunday: 5:00 AM – 10:00 PM"
    ],
    "currentlyOpen": null,
    "categories": ["place_of_worship", "mosque", "point_of_interest", "establishment"],
    "attributes": ["Wheelchair accessible", "Operational"]
  },
  {
    "name": "Parramatta Mosque",
    "address": "150 Marsden St, Parramatta NSW 2150",
    "phone": "(02) 9630 9948",
    "website": "https://parramattamosque.org.au/",
    "region": "Western Sydney",
    "rating": null,
    "verified": false,
    "openingHours": null,
    "currentlyOpen": null,
    "categories": ["place_of_worship", "mosque"],
    "attributes": ["Operational"]
  },
  {
    "name": "Masjid As-Sunnah Lakemba",
    "address": "132-136 Haldon St, Lakemba NSW 2195",
    "phone": "(02) 9740 0416",
    "website": "https://www.aswj.com.au/",
    "region": "South Sydney",
    "rating": null,
    "verified": false,
    "openingHours": null,
    "currentlyOpen": null,
    "categories": ["place_of_worship", "mosque"],
    "attributes": ["Operational"]
  },
  {
    "name": "Bankstown Mosque (Masjid Abu Bakr)",
    "address": "2 Winspear Ave, Bankstown NSW 2200",
    "phone": "(02) 9707 4842",
    "website": "https://www.facebook.com/BankstownMosque/",
    "region": "South Sydney",
    "rating": 4.4,
    "verified": true,
    "openingHours": [
      "Monday: 5:00 AM – 10:00 PM",
      "Tuesday: 5:00 AM – 10:00 PM",
      "Wednesday: 5:00 AM – 10:00 PM",
      "Thursday: 5:00 AM – 10:00 PM",
      "Friday: 5:00 AM – 10:00 PM",
      "Saturday: 5:00 AM – 10:00 PM",
      "Sunday: 5:00 AM – 10:00 PM"
    ],
    "currentlyOpen": true,
    "categories": ["place_of_worship", "mosque", "point_of_interest", "establishment"],
    "attributes": ["Wheelchair accessible", "Operational"]
  },
  {
    "name": "Liverpool Mosque (MIA)",
    "address": "165 Bow St, Liverpool NSW 2170",
    "phone": "(02) 9602 8277",
    "website": "https://mialiverpool.com.au/",
    "region": "Western Sydney",
    "rating": null,
    "verified": false,
    "openingHours": null,
    "currentlyOpen": null,
    "categories": ["place_of_worship", "mosque"],
    "attributes": ["Operational"]
  },
  {
    "name": "Blacktown Mosque",
    "address": "35 Flushcombe Rd, Blacktown NSW 2148",
    "phone": "(02) 9622 9544",
    "website": "https://www.facebook.com/BlacktownMosque/",
    "region": "Western Sydney",
    "rating": null,
    "verified": false,
    "openingHours": null,
    "currentlyOpen": null,
    "categories": ["place_of_worship", "mosque"],
    "attributes": ["Operational"]
  },
  {
    "name": "Fairfield Mosque",
    "address": "2 Kenyon St, Fairfield NSW 2165",
    "phone": "(02) 9724 4103",
    "website": "https://www.facebook.com/FairfieldMosque/",
    "region": "Western Sydney",
    "rating": null,
    "verified": false,
    "openingHours": null,
    "currentlyOpen": null,
    "categories": ["place_of_worship", "mosque"],
    "attributes": ["Operational"]
  },
  {
    "name": "Penshurst Mosque",
    "address": "447 Forest Rd, Penshurst NSW 2222",
    "phone": "(02) 9580 3390",
    "website": "https://penshurstmosque.com/",
    "region": "South Sydney",
    "rating": 4.9,
    "verified": true,
    "openingHours": [
      "Monday: Open 24 hours",
      "Tuesday: Open 24 hours",
      "Wednesday: Open 24 hours",
      "Thursday: Open 24 hours",
      "Friday: Open 24 hours",
      "Saturday: Open 24 hours",
      "Sunday: Open 24 hours"
    ],
    "currentlyOpen": true,
    "categories": ["place_of_worship", "mosque", "point_of_interest", "establishment"],
    "attributes": ["Wheelchair accessible", "Women's prayer area", "Operational"]
  },
  {
    "name": "Green Valley Masjid",
    "address": "264 Wilson Rd, Green Valley NSW 2168",
    "phone": "(02) 9607 4074",
    "website": "https://www.facebook.com/mlnsw/",
    "region": "Western Sydney",
    "rating": null,
    "verified": false,
    "openingHours": null,
    "currentlyOpen": null,
    "categories": ["place_of_worship", "mosque"],
    "attributes": ["Operational"]
  },
  {
    "name": "Dee Why Mosque",
    "address": "12 South Creek Rd, Dee Why NSW 2099",
    "phone": "(02) 9982 6102",
    "website": "https://www.facebook.com/DeeWhyMosque/",
    "region": "North Sydney",
    "rating": 4.8,
    "verified": true,
    "openingHours": [
      "Monday: 5:00 AM – 9:00 PM",
      "Tuesday: 5:00 AM – 9:00 PM",
      "Wednesday: 5:00 AM – 9:00 PM",
      "Thursday: 5:00 AM – 9:00 PM",
      "Friday: 5:00 AM – 9:00 PM",
      "Saturday: 5:00 AM – 9:00 PM",
      "Sunday: 5:00 AM – 9:00 PM"
    ],
    "currentlyOpen": true,
    "categories": ["place_of_worship", "mosque", "point_of_interest", "establishment"],
    "attributes": ["Wheelchair accessible", "Operational"]
  },
  {
    "name": "Al-Azhar Mosque",
    "address": "172B Burwood Rd, Belmore NSW 2192",
    "phone": "(02) 9747 9614",
    "website": "https://www.aswj.com.au/belmore",
    "region": "Sydney CBD & Eastern Suburbs",
    "rating": 5.0,
    "verified": true,
    "openingHours": [
      "Monday: Open 24 hours",
      "Tuesday: Open 24 hours",
      "Wednesday: Open 24 hours",
      "Thursday: Open 24 hours",
      "Friday: Open 24 hours",
      "Saturday: Open 24 hours",
      "Sunday: Open 24 hours"
    ],
    "currentlyOpen": true,
    "categories": ["place_of_worship", "mosque", "point_of_interest", "establishment"],
    "attributes": ["Wheelchair accessible", "Operational"]
  },
  {
    "name": "Masjid Abu Bakr Al-Siddeeq",
    "address": "361 Chisholm Rd, Auburn NSW 2144",
    "phone": "(02) 9738 7700",
    "website": "https://www.facebook.com/MasjidAbuBakr/",
    "region": "Western Sydney",
    "rating": null,
    "verified": false,
    "openingHours": null,
    "currentlyOpen": null,
    "categories": ["place_of_worship", "mosque"],
    "attributes": ["Operational"]
  },
  {
    "name": "IHIC Earlwood",
    "address": "6 Lang Rd, Earlwood NSW 2206",
    "phone": "(02) 9558 1114",
    "website": "https://www.ihic.org.au/",
    "region": "Sydney CBD & Eastern Suburbs",
    "rating": null,
    "verified": false,
    "openingHours": null,
    "currentlyOpen": null,
    "categories": ["place_of_worship", "mosque"],
    "attributes": ["Operational"]
  },
  {
    "name": "Masjid Al Hidayah Rockdale",
    "address": "2 Frederick St, Rockdale NSW 2216",
    "phone": "(02) 9567 6676",
    "website": "https://www.facebook.com/alhidayah.rockdale/",
    "region": "South Sydney",
    "rating": null,
    "verified": false,
    "openingHours": null,
    "currentlyOpen": null,
    "categories": ["place_of_worship", "mosque"],
    "attributes": ["Operational"]
  },
  {
    "name": "Mt Druitt Anadolu Mosque",
    "address": "52 Hythe St, Mount Druitt NSW 2770",
    "phone": "(02) 9625 9900",
    "website": "https://mtdruittmosque.org.au/",
    "region": "Western Sydney",
    "rating": 4.8,
    "verified": true,
    "openingHours": [
      "Monday: 5:00 AM – 10:00 PM",
      "Tuesday: 5:00 AM – 10:00 PM",
      "Wednesday: 5:00 AM – 10:00 PM",
      "Thursday: 5:00 AM – 10:00 PM",
      "Friday: 5:00 AM – 10:00 PM",
      "Saturday: 5:00 AM – 10:00 PM",
      "Sunday: 5:00 AM – 10:00 PM"
    ],
    "currentlyOpen": true,
    "categories": ["place_of_worship", "mosque", "point_of_interest", "establishment"],
    "attributes": ["Wheelchair accessible", "Operational"]
  }
]
